{"type":"FeatureCollection", "features":[
{"type":"Feature","geometry":{"type":"Point","coordinates":[-1.2978346550633664,50.761838007734504,46.766695057973266]},"properties":{"Town":"Cowes","Easting":449620,"Northing":96040,"image_x":627,"image_y":96,"Placename":"Cowes","Population":16278}},
{"type":"Feature","geometry":{"type":"Point","coordinates":[-1.2888203632752333,50.701711573870384,46.679159168154]},"properties":{"Town":"Newport","Easting":450320,"Northing":89360,"image_x":647,"image_y":295,"Placename":"Newport","Population":20324}},
{"type":"Feature","geometry":{"type":"Point","coordinates":[-1.1577646507000066,50.72943603040367,46.54698807001114]},"properties":{"Town":"Ryde","Easting":459540,"Northing":92540,"image_x":920,"image_y":200,"Placename":"Ryde","Population":19843}},
{"type":"Feature","geometry":{"type":"Point","coordinates":[-1.0787101768366023,50.685672357584494,46.389448542147875]},"properties":{"Town":"Bembridge","Easting":465180,"Northing":87740,"image_x":1086,"image_y":343,"Placename":"Bembridge","Population":3452}},
{"type":"Feature","geometry":{"type":"Point","coordinates":[-1.1399790520261635,50.67930574890273,46.460213012993336]},"properties":{"Town":"Brading","Easting":460860,"Northing":86980,"image_x":959,"image_y":365,"Placename":"Brading","Population":2071}},
{"type":"Feature","geometry":{"type":"Point","coordinates":[-1.2825782499138412,50.75814809419519,46.74266797862947]},"properties":{"Town":"East Cowes","Easting":450700,"Northing":95640,"image_x":658,"image_y":108,"Placename":"East Cowes","Population":209}},
{"type":"Feature","geometry":{"type":"Point","coordinates":[-1.153441807438206,50.654763605899845,46.44600940216333]},"properties":{"Town":"Sandown","Easting":459940,"Northing":84240,"image_x":932,"image_y":447,"Placename":"Sandown","Population":4813}},
{"type":"Feature","geometry":{"type":"Point","coordinates":[-1.172865884026026,50.628103977347436,46.436594819650054]},"properties":{"Town":"Shanklin","Easting":458600,"Northing":81260,"image_x":892,"image_y":535,"Placename":"Shanklin","Population":8140}},
{"type":"Feature","geometry":{"type":"Point","coordinates":[-1.5291399963912826,50.68566322855821,46.96201530005783]},"properties":{"Town":"Totland","Easting":433360,"Northing":87440,"image_x":146,"image_y":352,"Placename":"Totland","Population":2316}},
{"type":"Feature","geometry":{"type":"Point","coordinates":[-1.20422994434125,50.59594751013078,46.43519931472838]},"properties":{"Town":"Ventnor","Easting":456420,"Northing":77660,"image_x":828,"image_y":642,"Placename":"Ventnor","Population":6458}}
]}
